Tick#,offsetTime,flightTime,Longitude,Latitude,numSats,gpsHealth,Barometer:Raw,Barometer:Smooth,vpsHeight,relativeHeight,absoluteHeight,Accel:X,Accel:Y,Accel:Z,Accel:Composite,Gyro:X,Gyro:Y,Gyro:Z,Gyro:Composite,Mag:X,Mag:Y,Mag:Z,Mag:Mod,Vel:N,Vel:E,Vel:D,Vel:Composite,Vel:H,Vel:GPS-H,Roll,Pitch,Yaw,Yaw(360),totalGyroZ,magYaw,magYawErrorBound,distanceHP,distanceTravelled,directionOfTravel:mag,directionOfTravel:true,ImuTemp,flyCState,flycCommand,flightAction,nonGPSCause,connectedToRC,lowVoltage,rcModeSwitch,RC:Aileron,RC:Elevator,RC:Rudder,RC:Throttle,RC:failSafe,RC:appLost,RC:sigStrength,RC:connected,HP:Longitude,HP:Latitude,HP:rthHeight,Battery:cellVolts:1,Battery:cellVolts:2,Battery:cellVolts:3,Battery:cellVolts:4,Battery:cellVolts:5,Battery:cellVolts:6,SMART_BATT:goHome%,SMART_BATT:land%,SMART_BATT:goHomeTime,SMART_BATT:landTime,OA:emergBrake,Motor:Status:RFront,Motor:Status:LFront,Motor:Status:LSide,Motor:Status:LBack,Motor:Status:RBack,Motor:Status:RSide,Motor:Speed:RFront,Motor:Speed:LFront,Motor:Speed:LSide,Motor:Speed:LBack,Motor:Speed:RBack,Motor:Speed:RSide,Motor:Volts:RFront,Motor:Volts:LFront,Motor:Volts:LSide,Motor:Volts:LBack,Motor:Volts:RBack,Motor:Volts:RSide,Motor:EscTemp:RFront,Motor:EscTemp:LFront,Motor:EscTemp:LSide,Motor:EscTemp:LBack,Motor:EscTemp:RBack,Motor:EscTemp:RSide,Motor:PPM:RFront,Motor:PPM:LFront,Motor:PPM:LSide,Motor:PPM:LBack,Motor:PPM:RBack,Motor:PPM:RSide,Motor:PWM:RFront,Motor:PWM:LFront,Motor:PWM:LSide,Motor:PWM:LBack,Motor:PWM:RBack,Motor:PWM:RSide,Motor:Current:RFront,Motor:Current:LFront,Motor:Current:LSide,Motor:Current:LBack,Motor:Current:RBack,Motor:Current:RSide,AirComp:AirSpeedBody:X,AirComp:AirSpeedBody:Y,AirComp:Alti,AirComp:WindSpeed,AirComp:Wind:X,AirComp:Wind:Y,AirComp:MotorSpeed,AirComp:VelLevel,eventLog,Attribute|Value,ConvertDatGeneric,2.6.2
847417157,60.396,60400,-2.8360941088821554,55.891614427694016,21,5,243.24,241.86723,,100.4,,0.12713286,0.0054415055,-1.0572982,1.064928,28.279144,-15.346918,24.718073,40.57365,210,363,1472,1530.0,-0.24555229,0.40501988,0.0030599087,0.47365218,0.4736423,6.953449640403035,3.2531927466657318,8.459490341385687,-34.90942626207114,325.0905737379289,79.53773033050133,-33.15278902121595,1.0173610063318652,143.7215052735824,154.30674024622996,128.81649852314388,126.66713475666565,64.96,NaviGo,OTHER,NONE,ALREADY,Connected,,P,0,0,0,0,Hover,,95.2381,Connected,-2.8346941823237843,55.890587623586754,20,3.579,3.632,3.584,3.589,3.557,3.608,19,12,16,33,Off,0,0,0,0,0,0,4091,3441,3818,2799,3641,2948,42.5,43.2,42.4,42.7,42.7,43.0,21,20,20,20,20,20,1771,1720,1760,1451,1628,1552,96.3,89.9,96.1,59.3,80.4,71.4,1672,1696,2199,221,1302,782,-6.158242,1.5664771,0.0033738625,6.2834725,0.0,0.0,0.0,0,,
847569272,60.429,60500,-2.836093816547817,55.891614307840534,21,5,243.3745,241.87045,,100.4,,0.10616982,-0.0306766,-1.0563178,1.062083,-10.055989,-31.10559,25.509878,41.466064,232,356,1472,1532.0,-0.24705115,0.4220726,-0.021341665,0.4895253,0.48905987,12.564891698410367,3.2763956487217585,7.6764715011586375,-34.02857281721996,325.97142718278,80.35610405534128,-32.31153860480068,1.0140755094797096,143.6998468557363,154.3293210410709,127.93405457852381,125.78469081204557,65.02,NaviGo,OTHER,NONE,ALREADY,Connected,,P,0,0,0,0,Hover,,95.2381,Connected,-2.8346941823237843,55.890587623586754,20,3.579,3.632,3.584,3.589,3.557,3.608,19,12,16,33,Off,0,0,0,0,0,0,4091,3441,3905,2654,3471,3063,42.5,43.2,43.1,43.0,43.1,43.2,21,20,20,20,20,20,1771,1720,1689,1513,1547,1602,96.3,89.9,87.7,66.7,70.8,77.3,1672,1696,1177,1084,407,1332,-6.158242,1.5664771,0.0033738625,6.2834725,0.0,0.0,0.0,0,,
847719408,60.463,60500,-2.8360936569371797,55.89161427615753,21,5,242.98819,241.8744,,100.4,,0.09601189,-0.075049356,-1.0545019,1.0615201,-15.701087,-8.593039,35.667923,39.906956,254,350,1468,1530.0,-0.25678894,0.42897153,-0.041495506,0.5016762,0.4999571,155.77823624942536,3.1897467439628615,6.894203115475471,-33.161551706020035,326.83844829398,81.21227322610703,-31.885395047848288,1.0078881348060311,143.69100372353708,154.3572901356892,124.4447266872815,122.29536292080326,65.08,NaviGo,OTHER,NONE,ALREADY,Connected,,P,0,0,0,0,Hover,,95.2381,Connected,-2.8346941823237843,55.890587623586754,20,3.579,3.632,3.584,3.589,3.557,3.608,19,12,16,33,Off,0,0,0,0,0,0,3972,3637,3670,2832,3471,3063,42.8,43.4,43.3,43.2,43.1,43.2,21,19,19,19,19,19,1727,1735,1639,1574,1547,1602,91.7,90.9,81.7,73.1,70.8,77.3,1216,1841,898,1181,407,1332,-6.158242,1.5664771,0.0033738625,6.2834725,0.0,0.0,0.0,0,,
847870281,60.496,60500,-2.836093422409757,55.89161419226009,21,5,242.99124,241.8785,,100.4,,0.11655815,-0.07734365,-1.0266489,1.036135,-21.034294,-19.130302,25.04935,37.89301,277,340,1464,1528.0,-0.25829628,0.41924837,-0.056792412,0.495693,0.49242884,4.2414313535778945,3.1388939467118275,6.3245147701327955,-32.43575656690343,327.5642434330966,81.90462048089532,-30.605723414468866,0.9932171054018327,143.67471123340277,154.3746361550892,124.99565676123919,122.84629299476094,65.07,NaviGo,OTHER,NONE,ALREADY,Connected,,P,0,0,0,0,Hover,,95.2381,Connected,-2.8346941823237843,55.890587623586754,20,3.579,3.632,3.584,3.589,3.557,3.608,19,12,16,33,Off,0,0,0,0,0,0,3972,3637,3670,2832,3471,3063,42.8,43.4,43.3,43.2,43.1,43.2,21,19,19,19,19,19,1727,1735,1639,1574,1547,1602,91.7,90.9,81.7,73.1,70.8,77.3,1216,1841,898,1181,407,1332,-6.158242,1.5664771,0.0033738625,6.2834725,0.0,0.0,0.0,0,,
848022414,60.530,60600,-2.8360931536625964,55.891614093354924,21,5,242.45525,241.8827,,100.4,,0.100620255,-0.09374164,-1.0197599,1.0289909,5.9213133,-45.51246,20.739277,50.364307,283,323,1461,1522.0,-0.26111624,0.40650937,-0.056309078,0.48641777,0.48314753,7.685464218071372,3.0864733857958235,5.818747543766313,-31.64862596414671,328.35137403585327,82.6017009242547,-29.489974692729945,1.011965070002269,143.6557974251976,154.39468039400947,125.96793805094221,123.81857428446396,65.03,NaviGo,OTHER,NONE,ALREADY,Connected,,P,0,0,0,0,Hover,,95.2381,Connected,-2.8346941823237843,55.890587623586754,20,3.579,3.632,3.584,3.589,3.557,3.608,19,12,16,33,Off,0,0,0,0,0,0,3775,3801,3670,2832,3132,3266,43.0,43.7,43.3,43.2,43.3,43.3,21,20,20,20,20,20,1686,1728,1639,1574,1487,1626,87.3,92.3,81.7,73.1,63.6,80.2,990,1510,898,1181,118,1073,-6.158242,1.5664771,0.0033738625,6.2834725,0.0,0.0,0.0,0,,
848173199,60.564,60600,-2.836092890903889,55.89161399382442,21,5,242.5412,241.88574,,100.4,,0.09518193,-0.055724606,-1.0262784,1.032188,-31.342209,-9.258494,18.89373,37.749527,302,313,1461,1524.0,-0.2560483,0.4001277,-0.0508029,0.47774875,0.4750399,21.756987283031275,2.880439220905473,5.395255572012629,-30.89983464231187,329.1001653576881,83.2741533701589,-28.564892152599384,0.992691852200245,143.6370554073437,154.41445214162673,126.00772731816336,123.85836355168512,65.0,NaviGo,OTHER,NONE,ALREADY,Connected,,P,0,0,0,0,Hover,,95.2381,Connected,-2.8346941823237843,55.890587623586754,20,3.579,3.632,3.584,3.589,3.557,3.608,19,12,16,33,Off,0,0,0,0,0,0,3775,3801,3474,3011,2869,3364,43.0,43.7,43.4,43.3,43.5,43.5,21,20,20,20,20,20,1686,1728,1628,1589,1487,1642,87.3,92.3,80.4,75.8,63.4,82.1,990,1510,1036,1230,338,1124,-5.8854585,2.0398865,0.0033738625,6.2778006,0.0,0.0,0.0,0,,
848323341,60.597,60600,-2.8360926663979615,55.89161390909322,21,5,243.17226,241.88947,,100.4,,0.094222516,-0.047442224,-1.015581,1.0210452,-5.3977036,14.99204,26.921228,31.283367,315,304,1464,1528.0,-0.25141725,0.39681822,-0.060033698,0.47358143,0.46976092,3.4270490785011893,2.6164978331267963,5.18313749770587,-30.28630284879224,329.7136971512078,83.86281091695506,-27.913143362026926,0.9739812580128047,143.62106944323878,154.431326206852,126.00772754209163,123.85836377561338,64.98,NaviGo,OTHER,NONE,ALREADY,Connected,,P,0,0,0,0,Hover,,95.2381,Connected,-2.8346941823237843,55.890587623586754,20,3.579,3.632,3.584,3.589,3.557,3.608,19,12,16,33,Off,0,0,0,0,0,0,3604,3888,3351,3141,2869,3364,43.0,43.6,43.4,43.3,43.5,43.5,20,20,20,20,20,20,1688,1756,1617,1593,1487,1642,83.8,95.6,79.1,76.2,63.4,82.1,911,1803,1205,1188,338,1124,-5.8854585,2.0398865,0.0033738625,6.2778006,0.0,0.0,0.0,0,   9173 [L-MIS]line arc length:113.684822 ,
848474663,60.631,60700,-2.8360924046169615,55.89161381185558,21,5,243.17326,241.89534,,100.4,,0.10293992,-0.039225604,-1.0101187,1.0161078,11.967987,-7.2037554,10.743379,17.622343,321,290,1464,1526.0,-0.24656826,0.39202106,-0.073468685,0.46890733,0.463116,6.164433871652881,2.427181008059959,4.970433206965614,-29.67291347084853,330.3270865291515,84.37317058247477,-26.96779786265304,0.9726624983095097,143.60256753657455,154.45090558185987,125.98446789219638,123.83510412571813,64.96,NaviGo,OTHER,NONE,ALREADY,Connected,,P,0,0,0,0,Hover,,100.0,Connected,-2.8346941823237843,55.890587623586754,20,3.579,3.632,3.584,3.589,3.557,3.608,19,12,16,33,Off,0,0,0,0,0,0,3459,3964,3351,3141,2644,3408,43.2,43.6,43.4,43.3,43.4,43.5,21,19,19,19,19,19,1598,1804,1617,1593,1457,1615,75.4,101.3,79.1,76.2,60.1,78.9,613,2042,1205,1188,367,1030,-5.8854585,2.0398865,0.0033738625,6.2778006,0.0,0.0,0.0,0,   9174 [L-MIS]Ready to handle action [60.82]|   9175 [L-CAMERA]<0> ack_type 1 send 1 p 004de873|   9175 [L-MIS][WP] send simple shot,
848626698,60.664,60700,-2.8360923542650607,55.89161382738442,21,5,243.32394,241.90184,,100.4,,0.11114857,-0.06301901,-1.0023987,1.010509,-28.691774,14.196396,6.103556,32.58848,315,281,1475,1534.0,-0.23660527,0.383789,-0.084261365,0.45866767,0.45086145,1.7861115843686917,2.1117536073928895,4.802552894629034,-29.276501227463346,330.72349877253663,84.71359174306882,-27.331199676267598,0.988211522178034,143.60203344435627,154.48066249762292,124.0245272383594,121.87516347188115,64.93,NaviGo,OTHER,NONE,ALREADY,Connected,,P,0,0,0,0,Hover,,100.0,Connected,-2.8346941823237843,55.890587623586754,20,3.579,3.632,3.584,3.589,3.557,3.608,19,12,16,33,Off,0,0,0,0,0,0,3459,3964,3223,3364,2355,3611,43.2,43.6,43.6,43.2,43.2,42.8,21,19,19,19,19,19,1598,1804,1402,1679,1240,1613,75.4,101.3,51.7,86.5,34.2,78.6,613,2042,-421,1781,-760,847,-5.8854585,2.0398865,0.0033738625,6.2778006,0.0,0.0,0.0,0,   9176 [L-CAMERA]Send roninMX command|   9176 [L-CAMERA]let camera shot. wait step 2 ack,
848777196,60.698,60700,-2.8360921476022822,55.891613755472335,21,5,243.00842,241.9087,,100.4,,0.09268809,-0.06366246,-1.0109333,1.0171677,-15.031998,11.830555,12.465286,22.832134,330,264,1472,1531.0,-0.23167442,0.36315903,-0.09530083,0.44117996,0.43076387,Infinity,1.8402206438272877,4.903881156708208,-29.00126808109843,330.99873191890157,84.96981803312133,-25.44201138298378,0.9528459366264256,143.58785618369498,154.4958284306979,124.79522735243,122.64586358595176,64.94,NaviGo,OTHER,NONE,ALREADY,Connected,,P,0,0,0,0,Hover,,100.0,Connected,-2.8346941823237843,55.890587623586754,20,3.579,3.632,3.584,3.589,3.557,3.608,19,12,16,33,Off,0,0,0,0,0,0,3459,3964,3223,3364,2355,3611,43.2,43.6,43.6,43.2,43.2,42.8,21,19,19,19,19,19,1598,1804,1402,1679,1240,1613,75.4,101.3,51.7,86.5,34.2,78.6,613,2042,-421,1781,-760,847,-5.8854585,2.0398865,0.0033738625,6.2778006,0.0,0.0,0.0,0,   9177 [L-CAMERA]!!!!!!!!!!!!shot camera acked  len 1 buf 0. cb_type=0|   9177 [L-CAMERA]I receive camera reply result is 0|   9177 [L-CAMERA]cmd success|   9178 [L-CAMERA]recv step 2 ack,
848927763,60.731,60800,-2.836091976992443,55.891613693252744,21,5,242.81831,241.91417,,100.5,,0.06485321,-0.05755392,-0.9944181,0.99819124,-1.8393887,24.304302,-4.031042,24.704893,318,254,1475,1530.0,-0.24078345,0.3570403,-0.09172622,0.44030458,0.4306442,3.075309684694343,1.6485590074420327,5.080073132174542,-28.85354974121135,331.14645025878866,85.06175952414084,-25.270190718492042,0.9674384321800645,143.57590026537144,154.50851911020047,125.76990714279205,123.6205433763138,64.95,NaviGo,OTHER,NONE,ALREADY,Connected,,P,0,0,0,0,Hover,,100.0,Connected,-2.8346941823237843,55.890587623586754,20,3.579,3.632,3.584,3.589,3.557,3.608,19,12,16,33,Off,0,0,0,0,0,0,3232,4160,3128,3487,2355,3611,42.7,43.3,43.4,43.3,43.2,42.8,21,19,19,19,19,19,1546,1785,1543,1628,1240,1613,70.6,97.6,69.2,80.4,34.2,78.6,731,1706,740,962,-760,847,-5.8854585,2.0398865,0.0033738625,6.2778006,0.0,0.0,0.0,0,   9179 [L-CAMERA]SUCCESSED SIMPLE_SHOT|   9179 [L-MIS]|#SiF%|Date..Time..ID..Lat....Lon...Alt..Press.Yaw..RTKValid|   9179 [L-MIS]|#SiF%|20170927.16:01:55.     0.55.89161377..-2.83609229.243.27.241.90.-0.51.0|   9180 [L-MIS]I have done one action [60.94]|   9180 [L-MIS][WP]Done action_num 1 / 1. type 1,
849079950,60.765,60800,-2.8360917816955062,55.891613618214045,21,5,242.53716,241.91948,,100.5,,0.10284175,-0.04661634,-0.99732906,1.0037006,-12.406505,16.46121,-1.9585625,20.705767,318,258,1461,1517.0,-0.24383128,0.34209067,-0.083776474,0.4283669,0.42009488,5.938507403847544,1.4834105000394464,5.244652438366108,-28.720360682307305,331.27963931769267,85.14174819900973,-26.023669118249128,0.9591369769086876,143.56187729642502,154.5232815359171,127.25362367816717,125.10425991168893,64.95,NaviGo,OTHER,NONE,ALREADY,Connected,,P,0,0,0,0,Hover,,100.0,Connected,-2.8346941823237843,55.890587623586754,20,3.579,3.632,3.584,3.589,3.557,3.608,19,12,16,33,Off,0,0,0,0,0,0,3142,4138,3128,3487,2119,3608,43.3,43.8,43.4,43.3,43.6,43.7,21,20,20,20,20,20,1593,1760,1543,1628,1372,1642,76.2,96.1,69.2,80.4,49.4,82.1,929,1606,740,962,381,957,-5.613928,2.2444649,0.0033738625,6.270201,0.0,0.0,0.0,0,   9181 [L-MIS]I have done one sequence of actions [60.96]|   9181 [L-MIS]finished all actions. no rotation needed. [60.96],
849230697,60.799,60800,-2.8360915916537444,55.891613543488006,21,5,243.00034,241.92528,,100.5,,0.10506719,-0.038014956,-0.9694763,0.9758937,-2.823414,21.652052,10.127741,24.069777,302,254,1468,1520.0,-0.24091667,0.3331655,-0.08133971,0.41911364,0.41114485,17.872766196991204,1.269505090569554,5.643895255624969,-28.616680618096044,331.38331938190396,85.2353626067618,-26.431252160414935,0.9694746383403305,143.5480810104899,154.53775439178483,126.82761503031023,124.67825126383198,64.96,NaviGo,OTHER,NONE,ALREADY,Connected,,P,0,0,0,0,Hover,,100.0,Connected,-2.8346941823237843,55.890587623586754,20,3.579,3.632,3.584,3.589,3.557,3.608,19,12,16,33,Off,0,0,0,0,0,0,3142,4138,3038,3467,2157,3541,43.3,43.8,43.6,43.6,43.6,43.6,21,20,20,20,20,20,1593,1760,1535,1640,1385,1645,76.2,96.1,69.3,78.4,51.5,81.2,929,1606,981,656,959,792,-5.613928,2.2444649,0.0033738625,6.270201,0.0,0.0,0.0,0,   9183 [L-CAMERA]<0> ack_type 1 send 1 p 004dcf31|   9183 [L-MIS][WP] camera action send simple shot,
849384101,60.833,60900,-2.8360914063783027,55.89161346917885,21,5,243.05899,241.93138,,100.5,,0.12159041,-0.039115876,-0.96315205,0.9715844,21.776142,3.7172651,-0.98714846,22.113184,296,245,1468,1517.0,-0.24192855,0.32044584,-0.07772107,0.40896884,0.4015158,Infinity,1.2427929038665142,5.945971222958374,-28.504051012612777,331.49594898738724,85.32232956291982,-25.48933721939155,0.96884351099133,143.53450209316574,154.55195793911017,128.21315753799638,126.06379377151815,64.94,NaviGo,OTHER,NONE,ALREADY,Connected,,P,0,0,0,0,Hover,,100.0,Connected,-2.8346941823237843,55.890587623586754,20,3.579,3.632,3.584,3.589,3.557,3.608,19,12,16,33,Off,0,0,0,0,0,0,3166,4029,3103,3409,2157,3541,43.3,43.8,43.5,43.6,43.6,43.6,21,19,19,19,19,19,1561,1744,1489,1604,1385,1645,72.4,94.2,63.9,77.5,51.5,81.2,1066,1391,1009,718,959,792,-5.613928,2.2444649,0.0033738625,6.270201,0.0,0.0,0.0,0,   9184 [L-CAMERA]Send roninMX command|   9184 [L-CAMERA]let camera shot. wait step 2 ack,
849534410,60.866,60900,-2.836091447319775,55.89161347855869,21,5,243.13382,241.93568,,100.5,,0.10799222,-0.049482793,-0.9265844,0.93416786,-19.525755,-4.4811974,8.791383,21.877491,296,228,1468,1514.0,-0.24177799,0.3087466,-0.06192547,0.3970086,0.39214927,0.44149490611317366,1.2565833061835654,6.125357521660549,-28.35791958404712,331.6420804159529,85.50442737999893,-23.44204742298977,0.961519759879886,143.53688053430287,154.57407728250882,133.52520816002558,131.37584439354734,64.95,NaviGo,OTHER,NONE,ALREADY,Connected,,P,0,0,0,0,Hover,,100.0,Connected,-2.8346941823237843,55.890587623586754,20,3.579,3.632,3.584,3.589,3.557,3.608,19,12,16,33,Off,0,0,0,0,0,0,3235,3840,3103,3409,2419,3393,43.3,43.9,43.5,43.6,43.6,43.7,21,20,20,20,20,20,1620,1727,1489,1604,1405,1596,79.4,92.2,63.9,77.5,53.9,76.6,1823,1299,1009,718,1417,530,-5.613928,2.2444649,0.0033738625,6.270201,0.0,0.0,0.0,0,,
849684443,60.899,60900,-2.836091294064232,55.89161340060182,21,5,243.44933,241.93896,,100.5,,0.07418151,-0.04021836,-0.937168,0.9409592,17.533106,2.3014073,17.211441,24.676708,286,238,1479,1525.0,-0.24444579,0.3006997,-0.040101923,0.38959238,0.38752297,7.756481827230294,1.284238775960363,6.524592061059798,-28.14522216443516,331.85477783556485,85.72918739388737,-24.33772506899214,0.9606414036573306,143.52419123082313,154.58697949189508,134.6871819802849,132.53781821380664,64.96,NaviGo,OTHER,NONE,ALREADY,Connected,,P,0,0,0,0,Hover,,100.0,Connected,-2.8346941823237843,55.890587623586754,20,3.579,3.632,3.584,3.589,3.557,3.608,19,12,16,33,Off,0,0,0,0,0,0,3235,3840,3103,3409,2419,3393,43.3,43.9,43.5,43.6,43.6,43.7,21,20,20,20,20,20,1620,1727,1489,1604,1405,1596,79.4,92.2,63.9,77.5,53.9,76.6,1823,1299,1009,718,1417,530,-5.613928,2.2444649,0.0033738625,6.270201,0.0,0.0,0.0,0,,
849835933,60.933,61000,-2.8360911437418093,55.891613319518335,21,5,242.9973,241.94144,,100.5,,0.07289161,-0.06464225,-0.94015455,0.94518906,8.950019,10.002775,6.243845,14.803512,273,258,1475,1522.0,-0.26074368,0.2898642,-0.013873059,0.39012945,0.3898827,26.920057083456076,1.5290771786343995,6.963771989078395,-27.951909069654185,332.04809093034584,85.92882205944854,-25.874758837217335,0.9685344533828587,143.5113366802372,154.59998637589354,137.4599637344578,135.31059996797956,64.99,NaviGo,OTHER,NONE,ALREADY,Connected,,P,0,0,0,0,Hover,,100.0,Connected,-2.8346941823237843,55.890587623586754,20,3.579,3.632,3.584,3.589,3.557,3.608,19,12,16,33,Off,0,0,0,0,0,0,3235,3840,3237,3146,2470,3243,43.3,43.9,43.6,43.6,43.5,43.6,21,20,20,20,20,20,1620,1727,1587,1574,1446,1580,79.4,92.2,75.5,72.9,58.7,74.2,1823,1299,1392,479,741,553,-5.613928,2.2444649,0.0033738625,6.270201,0.0,0.0,0.0,0,   9188 [L-CAMERA]!!!!!!!!!!!!shot camera acked  len 1 buf 0. cb_type=0|   9188 [L-CAMERA]I receive camera reply result is 0|   9188 [L-CAMERA]cmd success|   9189 [L-CAMERA]recv step 2 ack|   9190 [L-CAMERA]SUCCESSED SIMPLE_SHOT|   9190 [L-MIS]|#SiF%|20170927.16:01:55.     0.55.89161353..-2.83609156.243.02.241.93.-0.50.0,
849987411,60.967,61000,-2.8360910182286965,55.89161324552184,21,5,242.86786,241.94183,,100.5,,0.08953021,-0.053124316,-0.9515049,0.95718306,-2.3385432,18.523241,12.883816,22.68418,264,254,1487,1531.0,-0.26908848,0.28468645,0.012095675,0.39192,0.39173332,2.4560307956473015,1.6630777223271347,7.480638539126968,-27.791584764032617,332.2084152359674,86.1157013381963,-24.79289633720827,0.9615962740827233,143.50004738064334,154.61134223356413,139.01101234549955,136.8616485790213,64.97,NaviGo,OTHER,NONE,ALREADY,Connected,,P,0,0,0,0,Hover,,100.0,Connected,-2.8346941823237843,55.890587623586754,20,3.579,3.632,3.584,3.589,3.557,3.608,19,12,16,33,Off,0,0,0,0,0,0,3443,3838,3305,3095,2470,3243,43.1,43.7,43.4,43.3,43.5,43.6,21,19,19,19,19,19,1642,1714,1577,1531,1446,1580,79.3,90.6,74.3,68.9,58.7,74.2,1032,1516,885,764,741,553,-5.441394,2.241658,0.0033738625,6.2610383,0.0,0.0,0.0,0,,
850138490,61.000,61100,-2.8360908732836614,55.8916131559965,21,5,242.86685,241.94148,,100.5,,0.12103454,-0.052239697,-0.947106,0.9562364,18.429035,14.4888735,2.9349434,23.625635,251,254,1490,1532.0,-0.27482998,0.2802978,0.033267394,0.39396077,0.39255363,4.9656233736663635,1.7814526161611923,8.163861183607315,-27.60426727770265,332.39573272229734,86.2842163884762,-24.235938103451776,0.9560499694655195,143.48665038048924,154.62478774337754,140.05176829179393,137.9024045253157,64.97,NaviGo,OTHER,NONE,ALREADY,Connected,,P,0,0,0,0,Hover,,100.0,Connected,-2.8346941823237843,55.890587623586754,20,3.579,3.632,3.584,3.589,3.557,3.608,19,12,16,33,Off,0,0,0,0,0,0,3459,3863,3305,3095,2511,3303,43.0,43.6,43.4,43.3,43.3,43.4,21,20,20,20,20,20,1645,1720,1577,1531,1440,1585,82.4,91.3,74.3,68.9,58.0,75.3,956,1540,885,764,729,1014,-5.441394,2.241658,0.0033738625,6.2610383,0.0,0.0,0.0,0,,
850289096,61.034,61100,-2.8360907299273994,55.89161306313611,21,5,242.97202,241.9405,,100.5,,0.09568862,-0.055305354,-0.9519765,0.9583706,5.1854115,11.15903,-2.1805568,12.49669,235,254,1479,1518.0,-0.28713232,0.27615002,0.057728365,0.4025374,0.39837646,11.16031514443855,1.9826875362689071,8.782862832198274,-27.472581734014316,332.52741826598566,86.42995369984556,-23.81165739357884,0.9646737005949414,143.4730187982535,154.63844562841024,142.13024798274844,139.9808842162702,64.99,NaviGo,OTHER,NONE,ALREADY,Connected,,P,0,0,0,0,Hover,,100.0,Connected,-2.8346941823237843,55.890587623586754,20,3.579,3.632,3.584,3.589,3.557,3.608,19,12,16,33,Off,0,0,0,0,0,0,3459,3863,3278,3164,2588,3341,43.0,43.6,43.3,43.2,43.3,43.4,21,20,20,20,20,20,1645,1720,1616,1598,1433,1630,82.4,91.3,78.4,76.8,57.2,80.6,956,1540,1092,1070,483,912,-5.441394,2.241658,0.0033738625,6.2610383,0.0,0.0,0.0,0,,
850442337,61.068,61100,-2.8360905452630245,55.89161294818099,21,5,243.00034,241.93907,,100.5,,0.10567735,-0.04899126,-0.94703794,0.9541744,29.020233,23.970303,2.8708785,37.749054,216,267,1490,1529.0,-0.30179664,0.27481246,0.07869841,0.41568804,0.40817043,Infinity,2.1112180719822686,9.505802156557285,-27.32384835912013,332.6761516408799,86.59524440309495,-24.709611761333672,0.9663228674039376,143.4558713554588,154.65565769800807,138.92330176144637,136.77393799496812,65.0,NaviGo,OTHER,NONE,ALREADY,Connected,,P,0,0,0,0,Hover,,100.0,Connected,-2.8346941823237843,55.890587623586754,20,3.579,3.632,3.584,3.589,3.557,3.608,19,12,16,33,Off,0,0,0,0,0,0,3428,3876,3299,3186,2588,3341,42.9,43.6,43.3,43.2,43.3,43.4,20,20,20,20,20,20,1657,1742,1602,1621,1433,1630,83.9,94.0,77.3,74.9,57.2,80.6,1339,1532,1032,640,483,912,-5.441394,2.241658,0.0033738625,6.2610383,0.0,0.0,0.0,0,   9196 [L-MIS]WP Mission: received idle vel cmd 3.618762 from app|   9196 [L-MIS]WP Mission: ack idle vel 0 to app,
850592865,61.101,61200,-2.836090649633227,55.891612969025076,21,5,242.79706,241.93591,,100.5,,0.110881,-0.05915197,-0.92949814,0.9379554,15.94298,-4.765973,9.324346,19.0745,194,271,1490,1526.0,-0.31503418,0.28064364,0.10468864,0.43470347,0.4219092,1.5556517947048083,2.1596872510805922,10.15439337070023,-27.20315587557337,332.7968441244266,86.7524939557114,-25.243905045412962,0.9805719245381594,143.46166337319025,154.68059274291016,146.14009756550587,143.99073379902762,65.0,NaviGo,OTHER,NONE,ALREADY,Connected,,P,0,0,0,0,Hover,,100.0,Connected,-2.8346941823237843,55.890587623586754,20,3.579,3.632,3.584,3.589,3.557,3.608,19,12,16,33,Off,0,0,0,0,0,0,3450,3890,3299,3186,2620,3365,42.8,43.4,43.3,43.2,43.3,43.3,21,20,20,20,20,20,1637,1749,1602,1621,1460,1637,81.5,94.8,77.3,74.9,60.4,79.2,1098,1538,1032,640,549,851,-5.441394,2.241658,0.0033738625,6.2610383,0.0,0.0,0.0,0,,
850744925,61.135,61200,-2.836090541107771,55.89161288137571,21,5,242.92348,241.931,,100.5,,0.12118087,-0.049240395,-0.95130426,0.9602547,-1.6412795,7.0010853,13.552912,15.342439,175,287,1487,1524.0,-0.3349365,0.2831343,0.13589764,0.45914668,0.4385744,4.43881168591453,2.3958963713002834,10.778197403150703,-27.116536355709762,332.88346364429026,86.89896778413089,-26.421852071420847,0.9916688463055171,143.44981051347503,154.69245885777684,148.18986296380888,146.04049919733063,64.97,NaviGo,OTHER,NONE,ALREADY,Connected,,P,0,0,0,0,Hover,,100.0,Connected,-2.8346941823237843,55.890587623586754,20,3.579,3.632,3.584,3.589,3.557,3.608,19,12,16,33,Off,0,0,0,0,0,0,3450,3890,3299,3186,2620,3365,42.8,43.4,43.3,43.2,43.3,43.3,21,20,20,20,20,20,1637,1749,1602,1621,1460,1637,81.5,94.8,77.3,74.9,60.4,79.2,1098,1538,1032,640,549,851,-5.441394,2.241658,0.0033738625,6.2610383,0.0,0.0,0.0,0,,
850895654,61.169,61200,-2.836090430993541,55.891612786743565,21,5,242.65547,241.92456,,100.5,,0.10129867,-0.052495617,-0.9532934,0.9600966,16.206787,-2.540252,12.092763,20.380081,169,284,1490,1526.0,-0.35824585,0.29649976,0.16715717,0.4941596,0.46502927,13.159174147790768,2.653206376328749,11.518443297785161,-27.03010413157684,332.9698958684232,87.02904300226757,-24.765831444573063,0.9704651838010875,143.43728046739804,154.70502373176953,149.6079058282426,147.45854206176435,64.96,NaviGo,OTHER,NONE,ALREADY,Connected,,P,0,0,0,0,Hover,,100.0,Connected,-2.8346941823237843,55.890587623586754,20,3.579,3.632,3.584,3.589,3.557,3.608,19,12,16,33,Off,0,0,0,0,0,0,3450,3890,3344,3236,2660,3390,42.8,43.4,43.1,43.0,43.1,43.0,21,20,20,20,20,20,1637,1749,1608,1571,1473,1658,81.5,94.8,78.0,73.6,62.0,84.0,1098,1538,1355,892,727,1344,-5.3530817,2.2506816,0.0033738625,6.250106,0.0,0.0,0.0,0,,
851049550,61.203,61300,-2.836090313424296,55.89161268439912,21,5,242.9791,241.91708,,100.5,,0.118079424,-0.059371933,-0.95568067,0.96477634,-25.911907,6.911566,-4.2514386,27.15274,147,284,1501,1534.0,-0.3818756,0.314064,0.1964663,0.5320378,0.4944342,Infinity,2.7453175876929117,12.267014512765135,-26.944181597585143,333.05581840241484,87.0975395842671,-24.482788955558167,0.975253726897263,143.42378674974628,154.71856081669725,149.73169266516328,147.58232889868503,64.99,NaviGo,OTHER,NONE,ALREADY,Connected,,P,0,0,0,0,Hover,,100.0,Connected,-2.8346941823237843,55.890587623586754,20,3.579,3.632,3.584,3.589,3.557,3.608,19,12,16,33,Off,0,0,0,0,0,0,3494,3925,3340,3246,2660,3390,42.6,43.2,43.0,42.8,43.1,43.0,21,20,20,20,20,20,1686,1734,1642,1632,1473,1658,87.3,93.0,81.9,80.9,62.0,84.0,1587,1482,1149,1339,727,1344,-5.3530817,2.2506816,0.0033738625,6.250106,0.0,0.0,0.0,0,,
851200305,61.236,61300,-2.8360902067320395,55.89161258945432,21,5,243.4018,241.91135,,100.5,,0.12313402,-0.059064712,-0.9514922,0.961243,21.683615,31.132584,8.362311,38.850292,147,284,1501,1534.0,-0.40762502,0.32598314,0.20581879,0.5610566,0.5219417,2.8541068557684466,2.7792358040210945,12.893892274303303,-26.84734845178607,333.15265154821395,87.22826417730296,-23.67791712435193,0.9456267657625004,143.4113586030455,154.73103970056712,150.52925817002426,148.37989440354602,64.97,NaviGo,OTHER,NONE,ALREADY,Connected,,P,0,0,0,0,Hover,,100.0,Connected,-2.8346941823237843,55.890587623586754,20,3.579,3.632,3.584,3.589,3.557,3.608,19,12,16,33,Off,0,0,0,0,0,0,3527,3947,3340,3246,2736,3464,42.5,43.0,43.0,42.8,42.8,42.9,21,20,20,20,20,20,1684,1756,1642,1632,1484,1612,85.9,95.6,81.9,80.9,63.3,78.5,1184,1878,1149,1339,1175,868,-5.3530817,2.2506816,0.0033738625,6.250106,0.0,0.0,0.0,0,,
851352412,61.270,61300,-2.836090241562845,55.89161254547331,21,5,243.17831,241.90456,,100.5,,0.13346545,-0.05470065,-0.9523583,0.96321934,20.110569,34.988613,11.733948,42.027653,109,300,1498,1531.0,-0.4332981,0.33918938,0.22396263,0.59410095,0.55026966,1.6698690822824456,2.7764375335667872,13.610303208664412,-26.737853581470585,333.2621464185294,87.37053008455884,-26.20248329982571,0.987670067405435,143.4087904718914,154.75726012841417,148.82157619804738,146.67221243156914,65.0,NaviGo,OTHER,NONE,ALREADY,Connected,,P,0,0,0,0,Hover,,100.0,Connected,-2.8346941823237843,55.890587623586754,20,3.579,3.632,3.584,3.589,3.557,3.608,19,12,16,33,Off,0,0,0,0,0,0,3527,3947,3401,3331,2817,3487,42.5,43.0,42.8,42.7,42.8,42.7,21,20,20,20,20,20,1684,1756,1621,1639,1506,1659,85.9,95.6,79.6,81.7,65.9,84.1,1184,1878,1248,1139,856,1390,-5.3530817,2.2506816,0.0033738625,6.250106,0.0,0.0,0.0,0,,
851503161,61.304,61400,-2.8360900817077805,55.89161240435886,21,5,243.3381,241.89723,,100.5,,0.11469977,-0.053584162,-0.9679766,0.97622025,18.110346,6.521407,14.330879,23.997656,99,307,1501,1535.0,-0.4703545,0.34886086,0.24404787,0.63442624,0.5856085,22.34540807006839,3.0251180278894725,14.187918105832022,-26.707531029440247,333.29246897055975,87.49347249065221,-25.942803751387242,0.9804945709496179,143.39027037935205,154.77585008610794,150.42030261108033,148.27093884460209,64.98,NaviGo,OTHER,NONE,ALREADY,Connected,,P,0,0,0,0,Hover,,100.0,Connected,-2.8346941823237843,55.890587623586754,20,3.579,3.632,3.584,3.589,3.557,3.608,19,12,16,33,Off,0,0,0,0,0,0,3544,3986,3445,3384,2817,3487,42.3,42.8,42.6,42.5,42.8,42.7,20,20,20,20,20,20,1676,1767,1631,1636,1506,1659,86.1,96.9,80.8,81.4,65.9,84.1,1207,1784,1235,1084,856,1390,-5.3530817,2.2506816,0.0033738625,6.250106,0.0,0.0,0.0,0,,
851653177,61.337,61400,-2.8360899383515186,55.89161227304114,21,5,243.63942,241.89099,,100.5,,0.10179297,-0.06522795,-0.9493047,0.95697224,9.842937,23.300606,-10.09022,27.232594,99,307,1501,1535.0,-0.50348645,0.36428386,0.2563505,0.67224765,0.62145096,3.3498324611304775,3.1719687342961205,14.68262377075122,-26.68593247570291,333.3140675242971,87.50093704406166,-24.968120028489736,0.9586786131359792,143.3732404748014,154.79297080715492,150.9411129256819,148.79174915920365,64.98,NaviGo,OTHER,NONE,ALREADY,Connected,,P,0,0,0,0,Hover,,100.0,Connected,-2.8346941823237843,55.890587623586754,20,3.579,3.632,3.584,3.589,3.557,3.608,19,12,16,33,Off,0,0,0,0,0,0,3544,3986,3445,3384,2817,3487,42.3,42.8,42.6,42.5,42.8,42.7,20,20,20,20,20,20,1676,1767,1631,1636,1506,1659,86.1,96.9,80.8,81.4,65.9,84.1,1207,1784,1235,1084,856,1390,-5.3530817,2.2506816,0.0033738625,6.250106,0.0,0.0,0.0,0,,
851804667,61.371,61400,-2.8360897605310913,55.89161210701802,21,5,242.85875,241.88254,,100.5,,0.099686325,-0.07312099,-0.9932581,1.0009224,9.990246,28.782862,0.7554787,30.476694,68,307,1498,1530.0,-0.5462761,0.38809562,0.27556232,0.7245484,0.6701013,6.69471523218326,3.149055169069311,15.240018165025345,-26.620349458032745,333.37965054196724,87.54194191090205,-25.83190470120051,0.9947779214331703,143.35183940153124,154.81450558573167,151.46081638783843,149.3114526213602,64.95,NaviGo,OTHER,NONE,ALREADY,Connected,,P,0,0,0,0,Hover,,100.0,Connected,-2.8346941823237843,55.890587623586754,20,3.579,3.632,3.584,3.589,3.557,3.608,19,12,16,33,Off,0,0,0,0,0,0,3620,4039,3445,3384,2868,3552,42.1,42.6,42.6,42.5,42.5,42.5,21,20,20,20,20,20,1699,1780,1631,1636,1521,1703,86.9,98.5,80.8,81.4,67.7,89.3,1193,1769,1235,1084,871,1308,-5.4157915,2.2598,0.0033738625,6.2385154,0.0,0.0,0.0,0,,
851956705,61.404,61500,-2.836089571222609,55.891611925570274,21,5,243.17326,241.87296,,100.4,,0.112951025,-0.07477382,-1.0123339,1.0213563,-6.59831,16.747433,-1.721156,18.082493,52,313,1501,1534.0,-0.59439397,0.40551934,0.28724122,0.7747629,0.7195486,13.833491743635374,3.153560020793341,15.832824152446126,-26.581390953613713,333.4186090463863,87.57321311621284,-26.38088781260421,0.9957227323952388,143.32864057419943,154.8378812063366,152.09735505433449,149.94799128785624,64.92,NaviGo,OTHER,NONE,ALREADY,Connected,,P,0,0,0,0,Hover,,100.0,Connected,-2.8346941823237843,55.890587623586754,20,3.579,3.632,3.584,3.589,3.557,3.608,19,12,16,33,Off,0,0,0,0,0,0,3620,4039,3444,3405,2940,3605,42.1,42.6,42.4,42.2,42.3,42.3,21,20,20,20,20,20,1699,1780,1699,1670,1553,1693,86.9,98.5,86.4,85.4,71.5,88.1,1193,1769,1339,1431,908,1150,-5.4157915,2.2598,0.0033738625,6.2385154,0.0,0.0,0.0,0,,
852107615,61.438,61500,-2.836089372870339,55.89161172692616,21,5,243.65762,241.86435,,100.4,,0.12432647,-0.07613539,-1.0042449,1.0147717,-1.837174,4.494706,2.860469,5.63559,39,320,1505,1539.0,-0.645073,0.4233089,0.28243512,0.821632,0.7715631,Infinity,3.1808834149325538,16.393108050630392,-26.54293800019665,333.45706199980333,87.62388832639414,-26.833251203843805,0.9914177745338961,143.303579995653,154.8631966379558,153.22257243905867,151.07320867258042,64.9,NaviGo,OTHER,NONE,ALREADY,Connected,,P,0,0,0,0,Hover,,100.0,Connected,-2.8346941823237843,55.890587623586754,20,3.579,3.632,3.584,3.589,3.557,3.608,19,12,16,33,Off,0,0,0,0,0,0,3653,4082,3544,3484,2940,3605,41.8,42.4,42.2,42.1,42.3,42.3,21,19,19,19,19,19,1711,1817,1695,1652,1553,1693,89.8,101.4,85.9,83.3,71.5,88.1,1325,1603,1302,1057,908,1150,-5.4157915,2.2598,0.0033738625,6.2385154,0.0,0.0,0.0,0,,
852257785,61.471,61500,-2.8360892940427265,55.89161154714594,21,5,243.25316,241.85826,,100.4,,0.13856718,-0.07497828,-1.0244706,1.0365146,-4.993127,24.846216,12.482925,28.250473,33,313,1501,1533.0,-0.69709396,0.4420439,0.2814942,0.8721134,0.8254349,4.792004249040878,3.20434235033679,16.78155130138551,-26.522616221389285,333.4773837786107,87.6658164522834,-25.9699465924287,0.9880176344676914,143.28471099457678,154.88832207527912,155.3393377783157,153.18997401183745,64.89,NaviGo,OTHER,NONE,ALREADY,Connected,,P,0,0,0,0,Hover,,100.0,Connected,-2.8346941823237843,55.890587623586754,20,3.579,3.632,3.584,3.589,3.557,3.608,19,12,16,33,Off,0,0,0,0,0,0,3695,4114,3544,3484,3031,3641,41.8,42.4,42.2,42.1,42.2,42.2,20,19,19,19,19,19,1717,1830,1695,1652,1577,1709,91.0,104.4,85.9,83.3,73.1,90.0,1448,1697,1302,1057,914,1244,-5.4157915,2.2598,0.0033738625,6.2385154,0.0,0.0,0.0,0,,
852408412,61.505,61600,-2.8360890744253333,55.89161130201953,21,5,243.03876,241.8507,,100.4,,0.11787183,-0.08588216,-1.027242,1.037543,-0.95234394,11.334468,3.1286478,11.796845,23,320,1509,1542.0,-0.7624508,0.46392787,0.28025532,0.93546957,0.89250225,14.672229277474154,3.111383695423408,17.271561985845405,-26.464237389717695,333.5357626102823,87.71386104216468,-26.601999248665972,0.9775073946272953,143.2547387731741,154.91882550543053,155.5712473792285,153.42188361275026,64.91,NaviGo,OTHER,NONE,ALREADY,Connected,,P,0,0,0,0,Hover,,100.0,Connected,-2.8346941823237843,55.890587623586754,20,3.579,3.632,3.584,3.589,3.557,3.608,19,12,16,33,Off,0,0,0,0,0,0,3695,4114,3590,3511,3078,3653,41.8,42.4,42.2,42.1,42.1,42.1,20,19,19,19,19,19,1717,1830,1684,1701,1574,1705,91.0,104.4,87.1,85.7,74.0,86.5,1448,1697,1403,844,1107,989,-5.4157915,2.2598,0.0033738625,6.2385154,0.0,0.0,0.0,0,,
852559868,61.538,61600,-2.8360888433198848,55.89161103709123,21,5,243.59192,241.8434,,100.4,,0.112756535,-0.08290771,-1.0363001,1.0457082,26.052141,-0.46586928,1.5179358,26.100483,7,323,1505,1539.0,-0.83710325,0.48643258,0.27612948,1.00678,0.9681728,51.69942997653595,3.0050087049175924,17.719564556477064,-26.41346421912515,333.58653578087484,87.74629336638523,-27.44062420006957,0.9877227266967648,143.22258232902357,154.95162005492742,156.3236466203831,154.17428285390486,64.97,NaviGo,OTHER,NONE,ALREADY,Connected,,P,0,0,0,0,Hover,,100.0,Connected,-2.8346941823237843,55.890587623586754,20,3.579,3.632,3.584,3.589,3.557,3.608,19,12,16,33,Off,0,0,0,0,0,0,3695,4114,3590,3511,3078,3653,41.8,42.4,42.2,42.1,42.1,42.1,20,19,19,19,19,19,1717,1830,1684,1701,1574,1705,91.0,104.4,87.1,85.7,74.0,86.5,1448,1697,1403,844,1107,989,-5.4157915,2.2598,0.0033738625,6.2385154,0.0,0.0,0.0,0,,
852713753,61.573,61600,-2.8360885995042477,55.89161075090197,21,5,243.51909,241.83794,,100.4,,0.11918032,-0.07138775,-1.0413998,1.0506254,8.429374,11.914218,3.0838828,14.916879,7,323,1505,1539.0,-0.91300476,0.5100146,0.25654176,1.0768037,1.0457976,Infinity,2.946378578228247,18.122434747963613,-26.393259605386486,333.6067403946135,87.76383574463695,-27.093401085811507,0.9682511192516113,143.18806658631908,154.98688798268205,156.88115058260925,154.731786816131,64.99,NaviGo,OTHER,NONE,ALREADY,Connected,,P,0,0,0,0,Hover,,100.0,Connected,-2.8346941823237843,55.890587623586754,20,3.579,3.632,3.584,3.589,3.557,3.608,19,12,16,33,Off,0,0,0,0,0,0,3726,4162,3642,3542,3078,3653,41.7,42.2,42.0,41.9,42.1,42.1,21,20,20,20,20,20,1752,1840,1704,1733,1574,1705,94.7,105.6,89.4,92.5,74.0,86.5,1380,1959,1444,1366,1107,989,-5.599395,2.2556162,0.0033738625,6.2254987,0.0,0.0,0.0,0,,
852864435,61.606,61700,-2.8360883798868537,55.89161048889184,21,5,243.33405,241.83282,,100.4,,0.112733364,-0.09024319,-1.0238206,1.0339543,2.0738585,-13.247639,5.876788,14.640268,-4,313,1505,1537.0,-0.9790932,0.5297533,0.25562468,1.1421936,1.1132215,8.56244424184953,2.8766957356487963,18.426188310967376,-26.369096876683283,333.6309031233167,87.78475536501765,-26.462650179388454,0.9754105566068961,143.15660356362204,155.01908007982806,157.14421573897084,154.9948519724926,64.96,NaviGo,OTHER,NONE,ALREADY,Connected,,P,0,0,0,0,Hover,,100.0,Connected,-2.8346941823237843,55.890587623586754,20,3.579,3.632,3.584,3.589,3.557,3.608,19,12,16,33,Off,0,0,0,0,0,0,3744,4195,3642,3542,3093,3664,41.6,42.2,42.0,41.9,42.0,42.1,20,19,19,19,19,19,1745,1821,1704,1733,1577,1746,94.3,103.4,89.4,92.5,74.3,93.9,1487,1923,1444,1366,970,1330,-5.599395,2.2556162,0.0033738625,6.2254987,0.0,0.0,0.0,0,,
853014441,61.639,61700,-2.8360881121173995,55.8916101624735,21,5,243.2936,241.82639,,100.4,,0.10667298,-0.07551294,-1.0320817,1.040324,9.411466,14.448562,1.4262229,17.302334,-17,320,1509,1542.0,-1.0619216,0.55355424,0.2569041,1.2247854,1.197539,25.132965772939965,2.823541824425815,18.82637303467754,-26.363042426848306,333.6369575731517,87.79873262422473,-27.292913314916056,0.9771535461059317,143.1176276139473,155.05903238139803,157.75050762315033,155.60114385667208,64.9,NaviGo,OTHER,NONE,ALREADY,Connected,,P,0,0,0,0,Hover,,100.0,Connected,-2.8346941823237843,55.890587623586754,20,3.579,3.632,3.584,3.589,3.557,3.608,19,12,16,33,Off,0,0,0,0,0,0,3744,4195,3672,3581,3143,3682,41.6,42.2,42.0,41.9,42.0,42.0,20,19,19,19,19,19,1745,1821,1728,1674,1594,1718,94.3,103.4,92.3,85.9,76.2,91.1,1487,1923,1635,1312,965,1092,-5.599395,2.2556162,0.0033738625,6.2254987,0.0,0.0,0.0,0,,
853165938,61.673,61700,-2.8360878461811456,55.89160975090708,21,5,243.5636,241.82202,,100.4,,0.13394874,-0.05979785,-1.0401757,1.0504682,22.474245,31.533655,2.39897,38.797142,-17,320,1509,1542.0,-1.1315252,0.58052105,0.24229345,1.2946273,1.2717522,100.84499761252373,2.732800691598101,19.045626594710242,-26.33767360602511,333.66232639397487,87.80747726194558,-27.25733866822716,0.9659636667727121,143.07120019115965,155.1082696378234,157.90052321097076,155.75115944449252,64.92,NaviGo,OTHER,NONE,ALREADY,Connected,,P,0,0,0,0,Hover,,100.0,Connected,-2.8346941823237843,55.890587623586754,20,3.579,3.632,3.584,3.589,3.557,3.608,19,12,16,33,Off,0,0,0,0,0,0,3764,4208,3708,3603,3143,3682,41.5,42.1,41.8,41.7,42.0,42.0,21,19,19,19,19,19,1735,1859,1754,1738,1594,1718,93.1,104.3,95.4,91.5,76.2,91.1,1464,1858,1628,1301,965,1092,-5.599395,2.2556162,0.0033738625,6.2254987,0.0,0.0,0.0,0,,
853317632,61.707,61800,-2.8360875743786513,55.89160941302449,21,5,243.57977,241.81947,,100.4,,0.12314187,-0.05825051,-1.020984,1.0300318,0.54033715,26.350338,-0.18512374,26.356527,-36,323,1516,1550.0,-1.186995,0.60264206,0.23135546,1.3511698,1.3312155,8.93753430788075,2.8028867154268595,19.235247648763266,-26.370759205604035,333.62924079439597,87.79464810580569,-27.861715754774146,0.9884651236103569,143.03106030342173,155.1494861342601,157.9255522136589,155.77618844718066,64.93,NaviGo,OTHER,NONE,ALREADY,Connected,,P,0,0,0,0,Hover,,100.0,Connected,-2.8346941823237843,55.890587623586754,20,3.579,3.632,3.584,3.589,3.557,3.608,19,12,16,33,Off,0,0,0,0,0,0,3791,4229,3708,3603,3182,3685,41.4,41.9,41.8,41.7,41.8,41.8,20,20,20,20,20,20,1743,1852,1754,1738,1637,1745,94.1,107.1,95.4,91.5,80.2,94.3,1491,2135,1628,1301,1203,1360,-5.599395,2.2556162,0.0033738625,6.2254987,0.0,0.0,0.0,0,,
853468173,61.740,61800,-2.8360872433026802,55.89160899874834,21,5,243.61415,241.8165,,100.4,,0.13276784,-0.08122656,-1.050471,1.0619389,15.326968,11.274479,8.064538,20.66559,-45,327,1509,1544.0,-1.2562197,0.628775,0.21948896,1.4218373,1.404794,19.154363913798687,2.8232318873598814,19.346294820874,-26.409454178124275,333.5905458218757,87.80070135680518,-28.628300592344836,1.0043598323081129,142.98192839367164,155.1999657331123,158.06193996979906,155.9125762033208,64.92,NaviGo,OTHER,NONE,ALREADY,Connected,,P,0,0,0,0,Hover,,100.0,Connected,-2.8346941823237843,55.890587623586754,20,3.579,3.632,3.584,3.589,3.557,3.608,19,12,16,33,Off,0,0,0,0,0,0,3791,4229,3754,3620,3229,3713,41.4,41.9,41.8,41.6,41.7,41.7,20,20,20,20,20,20,1743,1852,1702,1710,1601,1736,94.1,107.1,89.2,90.2,77.2,93.3,1491,2135,1510,1184,1164,1356,-5.855523,2.2140796,0.0033738625,6.210993,0.0,0.0,0.0,0,,
853619077,61.774,61800,-2.8360868978055342,55.891608562273234,21,5,243.79515,241.81488,,100.4,,0.15058607,-0.07235537,-1.0266318,1.0401367,25.6898,-11.709973,-1.3665096,28.265821,-45,327,1509,1544.0,-1.3220782,0.65285194,0.19918053,1.4878775,1.4744852,44.31911121611093,2.8536980587989285,19.42694147950695,-26.44978281870027,333.55021718129973,87.7571292525373,-28.44257839050509,1.000897815706537,142.93029053209446,155.25306598708852,158.3398465224974,156.19048275601915,64.95,NaviGo,OTHER,NONE,ALREADY,Connected,,P,0,0,0,0,Hover,,100.0,Connected,-2.8346941823237843,55.890587623586754,20,3.579,3.632,3.584,3.589,3.557,3.608,19,12,16,33,Off,0,0,0,0,0,0,3791,4229,3754,3620,3229,3713,41.4,41.9,41.8,41.6,41.7,41.7,20,20,20,20,20,20,1743,1852,1702,1710,1601,1736,94.1,107.1,89.2,90.2,77.2,93.3,1491,2135,1510,1184,1164,1356,-5.855523,2.2140796,0.0033738625,6.210993,0.0,0.0,0.0,0,,
853771885,61.808,61900,-2.8360865391093464,55.89160810505827,21,5,243.79211,241.814,,100.4,,0.14492318,-0.09084859,-1.0645814,1.0782346,-6.2161775,12.446765,-2.47627,14.131338,-39,320,1505,1539.0,-1.3883954,0.66941243,0.17289795,1.5510153,1.5413483,Infinity,2.8691861715320797,19.41831901274129,-26.49218599825171,333.5078140017483,87.7209987307967,-27.547862713022166,0.9941355272679983,142.87632208296665,155.30860837295023,158.60943700209913,156.46007323562088,64.95,NaviGo,OTHER,NONE,ALREADY,Connected,,P,0,0,0,0,Hover,,100.0,Connected,-2.8346941823237843,55.890587623586754,20,3.579,3.632,3.584,3.589,3.557,3.608,19,12,16,33,Off,0,0,0,0,0,0,3852,4245,3773,3602,3229,3713,41.3,41.9,41.7,41.6,41.7,41.7,21,19,19,19,19,19,1775,1865,1753,1722,1601,1736,97.9,108.5,95.3,88.7,77.2,93.3,1697,1725,1550,1187,1164,1356,-5.855523,2.2140796,0.0033738625,6.210993,0.0,0.0,0.0,0,,
853921957,61.841,61900,-2.836086222821191,55.891607694950935,21,5,243.69708,241.814,,100.4,,0.11529359,-0.07573357,-1.0927362,1.1014085,4.7910457,2.6859822,8.802794,10.375828,-42,323,1501,1535.0,-1.4547668,0.6921768,0.14805661,1.6178306,1.6110417,13.950796057002472,2.90167614310332,19.3730087970606,-26.539739687347836,333.46026031265217,87.72017065334883,-28.036940600785925,1.004653153928586,142.8281216805975,155.35829215427364,158.8254823970808,156.67611863060256,64.96,NaviGo,OTHER,NONE,ALREADY,Connected,,P,0,0,0,0,Hover,,100.0,Connected,-2.8346941823237843,55.890587623586754,20,3.579,3.632,3.584,3.589,3.557,3.608,19,12,16,33,Off,0,0,0,0,0,0,3901,4279,3773,3602,3261,3718,41.3,41.8,41.7,41.6,41.6,41.7,21,20,20,20,20,20,1798,1863,1753,1722,1628,1739,99.1,108.4,95.3,88.7,80.4,93.6,1553,1953,1550,1187,1162,1345,-5.855523,2.2140796,0.0033738625,6.210993,0.0,0.0,0.0,0,,
854072713,61.875,61900,-2.8360857871305916,55.891607089117656,20,5,243.8083,241.81563,,100.4,,0.15068752,-0.093084365,-1.0918444,1.1061174,11.815561,15.922211,-5.911607,20.689886,-42,323,1501,1535.0,-1.5302519,0.7144465,0.114402644,1.692688,1.6888175,36.34998518652797,2.951493566104475,19.32319709881881,-26.592161484909077,333.40783851509093,87.67541170350903,-27.970509305698968,1.007742884186559,142.75811492151755,155.4310241408436,158.67749635571337,156.52813258923513,64.99,NaviGo,OTHER,NONE,ALREADY,Connected,,P,0,0,0,0,Hover,,100.0,Connected,-2.8346941823237843,55.890587623586754,20,3.579,3.632,3.584,3.589,3.557,3.608,19,12,16,33,Off,0,0,0,0,0,0,3901,4279,3813,3594,3274,3717,41.3,41.8,41.7,41.6,41.7,41.8,21,20,20,20,20,20,1798,1863,1776,1686,1601,1725,99.1,108.4,96.6,87.3,77.2,91.9,1553,1953,1655,1471,981,1242,-5.855523,2.2140796,0.0033738625,6.210993,0.0,0.0,0.0,0,,
854223437,61.908,62000,-2.8360853625614064,55.89160653654101,20,5,243.71426,241.81908,,100.4,,0.14184713,-0.084573224,-1.0819007,1.0944325,-16.924818,-7.020235,9.181564,20.494738,-42,333,1505,1541.0,-1.6052221,0.74251306,0.07890904,1.7703927,1.7686332,159.83576385995218,2.902132580464571,19.334708324323664,-26.604983269300863,333.3950167306991,87.69023982577626,-28.94314742427164,1.0013141044324696,142.6932342418417,155.49792838364306,158.8888016455297,156.73943787905145,64.94,NaviGo,OTHER,NONE,ALREADY,Connected,,P,0,0,0,0,Hover,,95.2381,Connected,-2.8346941823237843,55.890587623586754,20,3.579,3.632,3.584,3.589,3.557,3.608,19,12,16,33,Off,0,0,0,0,0,0,3929,4284,3831,3576,3274,3717,41.3,42.0,41.7,41.8,41.7,41.8,21,20,20,20,20,20,1785,1836,1781,1730,1601,1725,99.1,105.2,97.4,89.8,77.2,91.9,1636,1791,1653,1178,981,1242,-5.855523,2.2140796,0.0033738625,6.210993,0.0,0.0,0.0,0,,
854375023,61.942,62000,-2.8360849879774825,55.89160604514175,20,5,243.6101,241.82245,,100.4,,0.14761223,-0.09134272,-1.0712684,1.0852414,5.9790373,-9.440939,7.698807,13.570255,-36,317,1505,1538.0,-1.668173,0.7592687,0.055948623,1.8336903,1.8328365,13.247639680927083,2.944292891931476,19.304782730076294,-26.62951377687926,333.37048622312074,87.68811478349903,-27.06504157972375,0.9952128022821425,142.63565123863793,155.5573522274727,159.08844189788738,156.93907813140913,64.97,NaviGo,OTHER,NONE,ALREADY,Connected,,P,0,0,0,0,Hover,,95.2381,Connected,-2.8346941823237843,55.890587623586754,20,3.579,3.632,3.584,3.589,3.557,3.608,19,12,16,33,Off,0,0,0,0,0,0,3918,4274,3831,3576,3260,3689,41.5,42.1,41.7,41.8,41.9,41.9,21,20,20,20,20,20,1760,1850,1781,1730,1623,1733,96.1,106.8,97.4,89.8,79.3,92.9,1633,1852,1653,1178,950,1198,-6.1253242,2.154516,0.0033738625,6.1948667,0.0,0.0,0.0,0,,
854527156,61.976,62000,-2.8360845399433345,55.8916054506685,20,5,243.57977,241.82707,,100.4,,0.13156095,-0.093041115,-1.0599331,1.0721115,17.749306,8.122508,6.042415,20.433397,-36,317,1505,1538.0,-1.7450479,0.78286844,0.036028247,1.9129488,1.9126096,22.194226130069364,2.988079480358379,19.248821803529133,-26.6510492346682,333.3489507653318,87.70570268358271,-27.019267461784406,0.9984510376726389,142.56618604786928,155.62911564176187,159.3087864501668,157.15942268368855,65.04,NaviGo,OTHER,NONE,ALREADY,Connected,,P,0,0,0,0,Hover,,95.2381,Connected,-2.8346941823237843,55.890587623586754,20,3.579,3.632,3.584,3.589,3.557,3.608,19,12,16,33,Off,0,0,0,0,0,0,3918,4274,3831,3576,3260,3689,41.5,42.1,41.7,41.8,41.9,41.9,21,20,20,20,20,20,1760,1850,1781,1730,1623,1733,96.1,106.8,97.4,89.8,79.3,92.9,1633,1852,1653,1178,950,1198,-6.1253242,2.154516,0.0033738625,6.1948667,0.0,0.0,0.0,0,,
854679295,62.009,62100,-2.8360840790767843,55.8916048334752,20,5,243.692,241.83266,,100.4,,0.13376528,-0.08832438,-1.0446771,1.0569034,-22.463211,-24.838371,-7.2736692,34.270203,-36,317,1505,1538.0,-1.8163995,0.8023314,0.012224797,1.9857472,1.9857095,43.48013785749073,3.0460216048416253,19.262760061453154,-26.682568863079346,333.3174311369207,87.67720489524707,-26.848111365238974,0.9984245568680244,142.49423112233373,155.7035180022786,159.4422608434651,157.29289707698686,64.99,NaviGo,OTHER,NONE,ALREADY,Connected,,P,0,0,0,0,Hover,,95.2381,Connected,-2.8346941823237843,55.890587623586754,20,3.579,3.632,3.584,3.589,3.557,3.608,19,12,16,33,Off,0,0,0,0,0,0,3918,4274,3831,3562,3221,3667,41.5,42.1,41.9,41.8,41.9,42.0,21,20,20,20,20,20,1760,1850,1741,1691,1623,1717,96.1,106.8,93.8,87.9,79.3,91.0,1633,1852,1622,1156,942,1160,-6.1253242,2.154516,0.0033738625,6.1948667,0.0,0.0,0.0,0,,
854829685,62.043,62100,-2.8360836064777515,55.891604193770284,20,5,243.87505,241.83954,,100.4,,0.14279248,-0.09300045,-1.0358233,1.049747,-4.467139,20.28516,-9.233629,22.7311,-26,336,1505,1542.0,-1.890009,0.82542425,-0.010249163,2.062417,2.0623918,Infinity,3.1455162029335275,19.271330818491045,-26.713385415394143,333.28661458460584,87.66569113991741,-27.90791682988211,0.9768274879407515,142.41984694215168,155.78051241721982,159.70804632765905,157.5586825611808,64.97,NaviGo,OTHER,NONE,ALREADY,Connected,,P,0,0,0,0,Hover,,95.2381,Connected,-2.8346941823237843,55.890587623586754,20,3.579,3.632,3.584,3.589,3.557,3.608,19,12,16,33,Off,0,0,0,0,0,0,3903,4275,3811,3539,3221,3667,41.5,42.1,41.9,41.9,41.9,42.0,21,20,20,20,20,20,1790,1852,1715,1677,1623,1717,99.7,107.1,90.8,86.2,79.3,91.0,1595,1996,1452,1071,942,1160,-6.1253242,2.154516,0.0033738625,6.1948667,0.0,0.0,0.0,0,,
854980288,62.076,62100,-2.836083108336129,55.89160348965716,20,5,243.68594,241.84593,,100.4,,0.14294639,-0.09785573,-1.0474976,1.0617254,11.804988,-4.0905867,3.2546067,12.910582,-26,336,1505,1542.0,-1.9546204,0.84388745,-0.02582915,2.1291673,2.1290107,21.089078780356974,3.2027408074180723,19.258754122924973,-26.726317166162477,333.27368283383754,87.69975996915272,-27.77693616746219,0.9781202457769357,142.33881286335745,155.864762156165,159.79488449436687,157.64552072788862,64.96,NaviGo,OTHER,NONE,ALREADY,Connected,,P,0,0,0,0,Hover,,95.2381,Connected,-2.8346941823237843,55.890587623586754,20,3.579,3.632,3.584,3.589,3.557,3.608,19,12,16,33,Off,0,0,0,0,0,0,3894,4260,3811,3539,3191,3661,41.6,42.1,41.9,41.9,42.0,42.0,20,20,20,20,20,20,1734,1869,1715,1677,1564,1713,93.0,107.5,90.8,86.2,72.8,90.5,1420,1708,1452,1071,827,1180,-6.1253242,2.154516,0.0033738625,6.1948667,0.0,0.0,0.0,0,,
855132411,62.110,62200,-2.836082591984717,55.89160278189631,20,5,243.40485,241.85294,,100.4,,0.13845737,-0.100020275,-1.0453175,1.0591805,11.469549,2.3474853,-3.936601,12.351439,-39,330,1501,1537.0,-2.0274549,0.8633496,-0.03602206,2.2039154,2.203621,32.820436245518394,3.3980356357370325,19.260894764191004,-26.819939979498567,333.18006002050146,87.67998629499247,-27.39897990715303,1.0091423525596253,142.25676963740807,155.94979291325902,160.03723401313331,157.88787024665507,64.96,NaviGo,OTHER,NONE,ALREADY,Connected,,P,0,0,0,0,Hover,,95.2381,Connected,-2.8346941823237843,55.890587623586754,20,3.579,3.632,3.584,3.589,3.557,3.608,19,12,16,33,Off,0,0,0,0,0,0,3894,4260,3795,3527,3168,3647,41.6,42.1,41.9,41.9,42.0,42.0,20,20,20,20,20,20,1734,1869,1749,1682,1607,1717,93.0,107.5,94.8,86.8,77.9,91.0,1420,1708,1541,900,962,1252,-6.1253242,2.154516,0.0033738625,6.1948667,0.0,0.0,0.0,0,,
855283192,62.144,62200,-2.8360820658562362,55.89160205245762,20,5,243.59798,241.86024,,100.4,,0.14259556,-0.077715814,-1.0427104,1.0552812,38.57872,-3.4150255,1.0025471,38.74255,-36,340,1505,1543.0,-2.0942583,0.8896911,-0.046181276,2.2758737,2.275405,89.05355706750332,3.5531149108623152,19.28608294253404,-26.854175158831573,333.1458248411684,87.69215273440554,-27.67999223865394,0.9992911038668686,142.1724463808596,156.03728607390514,160.15513403348382,158.00577026700557,64.96,NaviGo,OTHER,NONE,ALREADY,Connected,,P,0,0,0,0,Hover,,95.2381,Connected,-2.8346941823237843,55.890587623586754,20,3.594,3.646,3.594,3.599,3.568,3.626,19,12,16,33,Off,0,0,0,0,0,0,3882,4255,3782,3506,3168,3647,41.6,42.2,41.9,41.9,42.0,42.0,21,19,19,19,19,19,1787,1858,1728,1698,1607,1717,99.3,107.8,92.3,88.7,77.9,91.0,1579,1804,1712,1293,962,1252,-6.3728952,2.112831,0.0033738625,6.1771574,0.0,0.0,0.0,0,,
855433276,62.177,62200,-2.836081603400913,55.8916014106683,20,5,243.67583,241.86734,,100.4,,0.13729383,-0.089574054,-1.0347992,1.0477034,15.815538,-3.0793824,-4.1700478,16.643412,-36,340,1505,1543.0,-2.154556,0.9101027,-0.061325155,2.339692,2.3388884,15.341670861546056,3.750909753099888,19.341948798784102,-26.924876831423344,333.0751231685767,87.68834089870525,-27.09018056452463,0.9989754551804115,142.09827579573624,156.11425547753132,160.2167053365579,158.06734157007966,64.94,NaviGo,OTHER,NONE,ALREADY,Connected,,P,0,0,0,0,Hover,,95.2381,Connected,-2.8346941823237843,55.890587623586754,20,3.594,3.646,3.594,3.599,3.568,3.626,19,12,16,33,Off,0,0,0,0,0,0,3882,4255,3782,3506,3168,3647,41.6,42.2,41.9,41.9,42.0,42.0,21,19,19,19,19,19,1787,1858,1728,1698,1607,1717,99.3,107.8,92.3,88.7,77.9,91.0,1579,1804,1712,1293,962,1252,-6.3728952,2.112831,0.0033738625,6.1771574,0.0,0.0,0.0,0,,
855584668,62.211,62300,-2.8360810500188554,55.8916006428765,20,5,243.92053,241.87675,,100.4,,0.13790108,-0.06669604,-1.0149127,1.0264078,2.593754,0.14203379,4.496546,5.192943,-26,346,1498,1537.0,-2.2202106,0.9437297,-0.07693875,2.413686,2.4124594,30.69006517930346,3.8594048126459257,19.470854598397914,-26.95649611227729,333.0435038877227,87.72179802727977,-26.913069053131405,0.9787080245557257,142.0095421681171,156.20633938571567,160.1111538835708,157.96179011709256,64.9,NaviGo,OTHER,NONE,ALREADY,Connected,,P,0,0,0,0,Hover,,95.2381,Connected,-2.8346941823237843,55.890587623586754,20,3.594,3.646,3.594,3.599,3.568,3.626,19,12,16,33,Off,0,0,0,0,0,0,3882,4237,3782,3506,3171,3643,41.6,42.2,41.9,41.9,42.0,42.1,21,19,19,19,19,19,1775,1828,1728,1698,1564,1726,97.9,104.2,92.3,88.7,72.8,92.1,1561,1719,1712,1293,999,1402,-6.3728952,2.112831,0.0033738625,6.1771574,0.0,0.0,0.0,0,,
855736565,62.244,62300,-2.836080372956885,55.89159967894187,20,5,243.84673,241.88655,,100.4,,0.112090416,-0.07934958,-1.0190748,1.0282869,24.84743,20.340147,1.8545235,32.16451,-33,343,1501,1540.0,-2.2886558,0.9782737,-0.08962739,2.4905818,2.4889686,131.81058634097164,3.96364955938237,19.63916375052079,-26.988281798488654,333.01171820151137,87.7576886106734,-26.40681402769298,0.9835119889860982,141.898818241887,156.32155181276144,161.98426361019165,159.8348998437134,64.95,NaviGo,OTHER,NONE,ALREADY,Connected,,P,0,0,0,0,Hover,,95.2381,Connected,-2.8346941823237843,55.890587623586754,20,3.594,3.646,3.594,3.599,3.568,3.626,19,12,16,33,Off,0,0,0,0,0,0,3882,4237,3760,3487,3146,3620,41.6,42.2,42.0,41.9,42.1,42.1,21,19,19,19,19,19,1775,1828,1739,1699,1604,1717,97.9,104.2,93.1,88.8,77.5,91.0,1561,1719,1473,1327,1034,1272,-6.3728952,2.112831,0.0033738625,6.1771574,0.0,0.0,0.0,0,,
855887240,62.278,62300,-2.8360797623789784,55.891598834964945,20,5,243.962,241.89713,,100.4,,0.1331422,-0.079702646,-0.9861331,0.9982674,7.981648,-19.901365,8.186034,22.951736,-52,353,1505,1546.0,-2.3679507,1.0055906,-0.09377196,2.5743341,2.5726256,Infinity,4.141433333619887,19.883724002336237,-27.063964711749392,332.9360352882506,87.78420768984593,-27.362255134799064,1.0058025091452525,141.80120405930086,156.42282633035077,160.09050955288564,157.9411457864074,65.01,NaviGo,OTHER,NONE,ALREADY,Connected,,P,0,0,0,0,Hover,,95.2381,Connected,-2.8346941823237843,55.890587623586754,20,3.594,3.646,3.594,3.599,3.568,3.626,19,12,16,33,Off,0,0,0,0,0,0,3874,4224,3757,3495,3146,3620,41.7,42.2,42.0,42.0,42.1,42.1,21,19,19,19,19,19,1733,1821,1724,1652,1604,1717,92.9,103.4,91.8,83.3,77.5,91.0,1627,1787,1579,1081,1034,1272,-6.3728952,2.112831,0.0033738625,6.1771574,0.0,0.0,0.0,0,,
856037781,62.311,62400,-2.8360792256179366,55.891598095104214,20,5,243.79211,241.90614,,100.5,,0.14361387,-0.06414576,-0.9977451,1.0100667,11.162118,9.099477,-7.5828667,16.275541,-52,353,1505,1546.0,-2.4259384,1.0335592,-0.09612645,2.6386857,2.636934,21.896434782736478,4.295626362081032,20.047983323726037,-27.1207240729142,332.8792759270858,87.75446338724964,-26.751580919350886,0.9995338247749737,141.71557891672347,156.51164260029387,159.95970385009545,157.8103400836172,65.02,NaviGo,OTHER,NONE,ALREADY,Connected,,P,0,0,0,0,Hover,,100.0,Connected,-2.8346941823237843,55.890587623586754,20,3.594,3.646,3.594,3.599,3.568,3.626,19,12,16,33,Off,0,0,0,0,0,0,3849,4182,3757,3495,3151,3614,41.7,42.2,42.0,42.0,42.1,42.1,20,20,20,20,20,20,1729,1845,1724,1652,1604,1717,92.4,104.9,91.8,83.3,75.1,91.0,1307,1750,1579,1081,835,1363,-6.3728952,2.112831,0.0033738625,6.1771574,0.0,0.0,0.0,0,,
856189958,62.345,62400,-2.8360785820424246,55.89159721371216,20,5,243.65965,241.91617,,100.5,,0.1575603,-0.05011004,-0.97025347,0.9842398,13.923494,-2.7903013,1.0814584,14.241455,-52,359,1490,1533.0,-2.4887242,1.0681801,-0.09159814,2.7098243,2.7082758,42.01039121525339,4.468099830445778,20.27766501031076,-27.16543829212614,332.83456170787383,87.78766402303746,-26.945726235413126,0.9997625402477159,141.6134221110129,156.61754641443076,159.80425819227383,157.6548944257956,65.04,NaviGo,OTHER,NONE,ALREADY,Connected,,P,0,0,0,0,Hover,,100.0,Connected,-2.8346941823237843,55.890587623586754,20,3.594,3.646,3.594,3.599,3.568,3.626,19,12,16,33,Off,0,0,0,0,0,0,3849,4182,3747,3499,3180,3620,41.7,42.2,42.1,42.0,42.0,42.1,20,20,20,20,20,20,1729,1845,1717,1662,1602,1704,92.4,104.9,91.0,84.4,77.3,89.4,1307,1750,1554,1084,1070,1126,-6.3728952,2.112831,0.0033738625,6.1771574,0.0,0.0,0.0,0,,
856340056,62.378,62400,-2.836077917812857,55.89159631491529,20,5,244.01964,241.92615,,100.5,,0.15140466,-0.06421332,-0.99978983,1.0132258,-26.332954,-5.9571896,2.0503967,27.076128,-58,376,1494,1541.0,-2.552306,1.102128,-0.09091052,2.7815852,2.7800992,157.78280548859667,4.721258655982394,20.431456307144426,-27.27687644647216,332.72312355352784,87.81336067158087,-27.863449266246963,1.000559431201234,141.50895161216675,156.7257301613881,159.57134751258107,157.42198374610282,65.05,NaviGo,OTHER,NONE,ALREADY,Connected,,P,0,0,0,0,Hover,,100.0,Connected,-2.8346941823237843,55.890587623586754,20,3.594,3.646,3.594,3.599,3.568,3.626,19,12,16,33,Off,0,0,0,0,0,0,3849,4182,3747,3499,3180,3620,41.7,42.2,42.1,42.0,42.0,42.1,20,20,20,20,20,20,1729,1845,1717,1662,1602,1704,92.4,104.9,91.0,84.4,77.3,89.4,1307,1750,1554,1084,1070,1126,-6.3728952,2.112831,0.0033738625,6.1771574,0.0,0.0,0.0,0,,
856493885,62.413,62500,-2.8360772319515255,55.891595397567194,20,5,244.31387,241.93767,,100.5,,0.1323502,-0.0637618,-0.9608801,0.9720456,-6.1279545,8.009825,-15.410955,18.417564,-58,376,1494,1541.0,-2.617632,1.1436745,-0.09854619,2.8582687,2.8565693,Infinity,4.8905675848273775,20.59789785121156,-27.318882915175774,332.6811170848242,87.80179491585051,-27.221837960757767,0.9947124697830039,141.40202932287193,156.8363369699309,159.27937302471926,157.13000925824102,65.05,NaviGo,OTHER,NONE,ALREADY,Connected,,P,0,0,0,0,Hover,,100.0,Connected,-2.8346941823237843,55.890587623586754,20,3.594,3.646,3.594,3.599,3.568,3.626,19,12,16,33,Off,0,0,0,0,0,0,3852,4169,3737,3484,3180,3620,41.6,42.2,41.9,42.0,42.0,42.1,21,19,19,19,19,19,1762,1826,1710,1662,1602,1704,96.3,104.0,90.2,84.4,77.3,89.4,1614,1751,1351,1006,1070,1126,-6.3728952,2.112831,0.0033738625,6.1771574,0.0,0.0,0.0,0,,
856644417,62.446,62500,-2.836076632739461,55.89159460444983,20,5,244.20467,241.94775,,100.5,,0.13051513,-0.07047861,-0.98661983,0.9977074,-0.88067263,5.2856455,-5.555911,7.7189236,-58,382,1490,1539.0,-2.6783242,1.1716031,-0.101028375,2.9251122,2.9233668,26.18874547184763,5.064108377869368,20.713863648126583,-27.384233058425504,332.6157669415745,87.84544066626916,-27.28879181464864,0.9927921137277127,141.30935434709832,156.93211600173683,158.9326491745603,156.78328540808207,65.01,NaviGo,OTHER,NONE,ALREADY,Connected,,P,0,0,0,0,Hover,,100.0,Connected,-2.8346941823237843,55.890587623586754,20,3.594,3.646,3.594,3.599,3.568,3.626,19,12,16,33,Off,0,0,0,0,0,0,3867,4179,3737,3484,3194,3643,41.6,42.2,41.9,42.0,42.0,42.0,20,20,20,20,20,20,1748,1835,1710,1662,1586,1678,94.7,105.0,90.2,84.4,75.4,86.3,1451,1887,1351,1006,1191,1113,-6.3728952,2.112831,0.0033738625,6.1771574,0.0,0.0,0.0,0,,
856794429,62.479,62500,-2.8360758899267067,55.89159351868154,20,5,244.05603,241.95691,,100.5,,0.15310167,-0.07743706,-0.9859439,1.0007608,10.999159,-19.262886,-7.539074,23.428144,-64,396,1490,1543.0,-2.747309,1.2037045,-0.09232898,3.0008557,2.999435,76.70224201063519,5.256081049668869,20.816870650456146,-27.45850496812009,332.5414950318799,87.85452764461472,-28.225166652079004,0.9981254404573036,141.18543904925954,157.06157037760033,159.61625889494053,157.46689512846228,64.99,NaviGo,OTHER,NONE,ALREADY,Connected,,P,0,0,0,0,Hover,,100.0,Connected,-2.8346941823237843,55.890587623586754,20,3.594,3.646,3.594,3.599,3.568,3.626,19,12,16,33,Off,0,0,0,0,0,0,3867,4179,3733,3481,3190,3652,41.6,42.2,42.0,41.9,41.9,42.0,20,20,20,20,20,20,1748,1835,1694,1693,1608,1713,94.7,105.0,88.3,86.9,78.0,90.5,1451,1887,1394,1065,1066,1309,-6.3728952,2.112831,0.0033738625,6.1771574,0.0,0.0,0.0,0,,
856945936,62.513,62600,-2.8360751639793964,55.89159254130248,20,5,244.18445,241.96613,,100.5,,0.14548177,-0.07625129,-0.97385544,0.98761004,10.622788,22.54559,-3.8618329,25.22025,-64,396,1490,1543.0,-2.808018,1.235045,-0.08766478,3.0688736,3.0676215,251.75800464538167,5.402424724202215,20.938952433866692,-27.50623562376953,332.49376437623044,87.86226161058381,-27.70220934367597,0.9942776102360035,141.07172168798098,157.17929990390869,159.40553407947667,157.25617031299842,64.99,NaviGo,OTHER,NONE,ALREADY,Connected,,P,0,0,0,0,Hover,,100.0,Connected,-2.8346941823237843,55.890587623586754,20,3.594,3.646,3.594,3.599,3.568,3.626,19,12,16,33,Off,0,0,0,0,0,0,3871,4181,3728,3476,3190,3652,41.5,42.1,41.9,41.9,41.9,42.0,21,19,19,19,19,19,1761,1818,1698,1646,1608,1713,96.2,103.0,88.7,82.5,78.0,90.5,1537,1818,1385,992,1066,1309,-6.3728952,2.112831,0.0033738625,6.1771574,0.0,0.0,0.0,0,,
